name,formatted_address,place_id,rating,user_ratings_total,types,latitude,longitude,num_bus_stops_within_1km,num_mtr_station_within_1km,num_competitor_within_1km,district
Wellcome,"84-90號 Queen's Road Central, Central, Hong Kong",ChIJ5b0oWHsABDQRJUwc57avQ94,3.8,362,"['supermarket', 'grocery_or_supermarket', 'store', 'food', 'point_of_interest', 'establishment']",22.2832453,114.1551054,116,5,4,Central and Western District
wellcome,"125, Metro Harbour View Plaza, 8 Fuk Lee St, Tai Kok Tsui, Hong Kong",ChIJfzdi4rAABDQRYsiJViBAKIs,3.7,259,"['supermarket', 'grocery_or_supermarket', 'store', 'food', 'point_of_interest', 'establishment']",22.3244101,114.1604543,117,6,14,Sham Shui Po
Wellcome,"319 Nathan Rd, Jordan, Hong Kong",ChIJG3W4guwABDQRsYiKQEyeUvU,3.6,275,"['supermarket', 'grocery_or_supermarket', 'store', 'food', 'point_of_interest', 'establishment']",22.3064357,114.1713617,98,3,13,Yau Tsim Mong
Wellcome,"Shop No.23, G/F, Hoi Fu Shopping Centre, 2 Hoi Ting Rd, Mong Kok, Hong Kong",ChIJvdn9MLkABDQRbEofjcY9gsc,3.6,215,"['supermarket', 'grocery_or_supermarket', 'store', 'food', 'point_of_interest', 'establishment']",22.315173,114.1644146,94,5,15,Yau Tsim Mong
Wellcome,"G/F, TG Place, 8 Shing Yip St, Kwun Tong, Hong Kong",ChIJabudQ0UBBDQRF2ggpcEzLiE,3.5,182,"['supermarket', 'grocery_or_supermarket', 'store', 'food', 'point_of_interest', 'establishment']",22.3104166,114.2257449,78,3,4,Kwon Tong
Wellcome,"Far East Consortium Building, 204-206 Nathan Rd, Tsim Sha Tsui, Hong Kong",ChIJK8CLjesABDQRb5SeNhHVk1k,3.9,118,"['supermarket', 'grocery_or_supermarket', 'store', 'food', 'point_of_interest', 'establishment']",22.3037107,114.1719475,93,4,12,Yau Tsim Mong
Wellcome,"Shop No. 6B & No. 6C1, G/F, Ka Wo Bldg, Nos, 14-22 Ka Wo St, Hong Kong",ChIJt_IRRAEABDQRdjnnirMxhBc,3.5,20,"['supermarket', 'grocery_or_supermarket', 'store', 'food', 'point_of_interest', 'establishment']",22.2500469,114.1485326,42,0,4,Southern
Wellcome - Causeway Bay,"25-29號 Great George St, Causeway Bay, Hong Kong",ChIJk3dQL1QABDQRM77UUNtOEYQ,4.0,969,"['supermarket', 'grocery_or_supermarket', 'store', 'food', 'point_of_interest', 'establishment']",22.2807587,114.1859489,93,2,4,Wan Chai
Wellcome Superstore,"Tsui Wan Mansion, Shop 1-3 G/F, Tsui Wan Building, 155-163 Un Chau St, Hong Kong",ChIJVfS7lUwHBDQRyX1mnFM98Bg,3.6,162,"['supermarket', 'grocery_or_supermarket', 'store', 'food', 'point_of_interest', 'establishment']",22.3342794,114.1605726,147,3,13,Sham Shui Po
Wellcome - Lung Hang,"Hong Kong, HK HK HK 香港Shop 215, Lung Hang Shopping Centre, Lung Hang Estate",ChIJBX4s-QUHBDQR-koBBpJUx10,3.7,253,"['supermarket', 'grocery_or_supermarket', 'store', 'food', 'point_of_interest', 'establishment']",22.3678964,114.179374,44,1,3,Sha Tin
Wellcome,"Hong Kong, Ho Man Tin, Liberty Ave, 7號富威花園地下C舖",ChIJTf5c_sUABDQRk4rI4qqKbQI,3.8,29,"['supermarket', 'grocery_or_supermarket', 'store', 'food', 'point_of_interest', 'establishment']",22.3189264,114.174401,120,7,11,Yau Tsim Mong
Wellcome,"Everwin Mansion, 號, 18 Johnston Rd, Hong Kong",ChIJteIxGF0ABDQR1l4Qg_6i7sM,3.7,139,"['supermarket', 'grocery_or_supermarket', 'store', 'food', 'point_of_interest', 'establishment']",22.2770995,114.1700787,84,3,2,Wan Chai
Wellcome,"Shop B, Upper Ground Floor, 989-992 King's, King's Rd, Quarry Bay, Hong Kong",ChIJz-BrenMBBDQRSxxULKE6CeI,3.6,291,"['supermarket', 'grocery_or_supermarket', 'store', 'food', 'point_of_interest', 'establishment']",22.2857259,114.2114493,35,3,2,Eastern
Wellcome,"Bldg., 63, Federate Building, Upper G/F, 65 First St, Sai Ying Pun, Hong Kong",ChIJ_TqTwYD_AzQREf8xcF1rlFw,3.6,231,"['supermarket', 'grocery_or_supermarket', 'store', 'food', 'point_of_interest', 'establishment']",22.28663,114.1421721,79,0,6,Central and Western District
Wellcome,"Jade Mansion, 40 Waterloo Rd, Yau Ma Tei, Hong Kong",ChIJgY04H8EABDQR3h5KFWbhB9I,3.7,190,"['supermarket', 'grocery_or_supermarket', 'store', 'food', 'point_of_interest', 'establishment']",22.3127853,114.1710185,116,5,14,Yau Tsim Mong
Wellcome,"Hong Kong, 香港島 Ko Shan Rd, 109號地下 Lok Man Sun Chuen Site 3 Block H Lok Chee Lau",ChIJxWScl9kABDQRzWnuc2whylg,3.6,55,"['supermarket', 'grocery_or_supermarket', 'store', 'food', 'point_of_interest', 'establishment']",22.3152787,114.186789,102,0,9,Kowloon City District
Wellcome,"Hong Kong, Tsim Sha Tsui, Chatham Rd S, 17至19號帝后廣場地庫",ChIJQ8DuJe4ABDQRkoLDKO5rKw0,3.9,258,"['supermarket', 'grocery_or_supermarket', 'store', 'food', 'point_of_interest', 'establishment']",22.2970491,114.1753155,55,4,7,Wan Chai
惠康 Wellcome,"Basement, No. 312, G F &, 310 Hennessy Rd, Wan Chai, Hong Kong",ChIJB0pWhFwABDQRBmW1ZZgwB_M,3.5,462,"['supermarket', 'grocery_or_supermarket', 'store', 'food', 'point_of_interest', 'establishment']",22.2771773,114.1759906,98,2,3,Wan Chai
Wellcome,"53-54 Kimberley Rd, Tsim Sha Tsui, Hong Kong",ChIJuZcKl-4ABDQRkuWUpsWyHWk,3.9,386,"['supermarket', 'grocery_or_supermarket', 'store', 'food', 'point_of_interest', 'establishment']",22.3009517,114.174518,83,4,12,Yau Tsim Mong
Wellcome - Fortress Metro Tower Superstore,"238 King's Rd, North Point, Hong Kong",ChIJqfVbfwQBBDQRf7Eai6WeKy4,3.8,409,"['supermarket', 'grocery_or_supermarket', 'store', 'food', 'point_of_interest', 'establishment']",22.28805,114.1938189,69,4,5,Wan Chai
Wellcome,"Loon Kee Building, Ground floor, Des Voeux Rd Central, Hong Kong",ChIJWTSes30ABDQRJUzHqXG59K4,3.7,111,"['supermarket', 'grocery_or_supermarket', 'food', 'point_of_interest', 'store', 'establishment']",22.2867674,114.1518339,108,5,5,Central and Western District
Wellcome,"Lei Yue Mun Plaza Shop 123-124, Level, 1, Yau Tong, Hong Kong",ChIJG1qlp94GBDQRW7XSZwlK08E,3.4,117,"['supermarket', 'grocery_or_supermarket', 'food', 'point_of_interest', 'store', 'establishment']",22.2960286,114.2395595,28,2,1,Kwon Tong
Wellcome,"A, Albron Court, 99 Caine Rd, Central, Hong Kong",ChIJKYjGwXsABDQRCj11JZRjzyo,3.9,156,"['supermarket', 'grocery_or_supermarket', 'food', 'point_of_interest', 'store', 'establishment']",22.282525,114.151123,123,5,5,Central and Western District
Wellcome,"Supernova Stand, Shop 2-9, G/F, Mercury St, North Point, Hong Kong",ChIJT_wt0wEBBDQRRaYvO_6quAk,3.6,91,"['supermarket', 'grocery_or_supermarket', 'food', 'point_of_interest', 'store', 'establishment']",22.2859131,114.192035,77,2,8,Wan Chai
Wellcome,"Cartwright Garden, 1B-1C Bonham Rd, Mid-Levels, Hong Kong",ChIJvTHW23gABDQRnwB83A0hzTA,3.5,40,"['supermarket', 'grocery_or_supermarket', 'food', 'point_of_interest', 'store', 'establishment']",22.2837336,114.1464818,103,1,8,Central and Western District
Wellcome,"2 Shung Ling St, No. 12 Hill, Hong Kong",ChIJl0PjItcGBDQRQCHtmZXdHgM,3.5,154,"['supermarket', 'grocery_or_supermarket', 'food', 'point_of_interest', 'store', 'establishment']",22.3360407,114.1960865,92,3,5,Wong Tai Sin
Wellcome,"Port Centre, Basement 1, 38 Chengtu Rd, Hong Kong",ChIJBXOVRQMABDQRajX1CGLjbAc,3.5,182,"['supermarket', 'grocery_or_supermarket', 'food', 'point_of_interest', 'store', 'establishment']",22.2489347,114.1548449,50,0,5,Southern
Wellcome,"Prosperity Court, Shop 4-6, G.F, No, 168 Lai Chi Kok Rd, Prince Edward, Hong Kong",ChIJLeCsibYABDQR4lBxn2Rf4G8,3.6,212,"['supermarket', 'grocery_or_supermarket', 'food', 'point_of_interest', 'store', 'establishment']",22.3256306,114.1645863,150,8,17,Sham Shui Po
Wellcome,"Tung Chun Commercial Centre, 438 Shanghai St, Mong Kok, Hong Kong",ChIJEWRfSMcABDQRBhI2aDWtW3A,3.7,281,"['supermarket', 'grocery_or_supermarket', 'food', 'point_of_interest', 'store', 'establishment']",22.3152532,114.1690248,117,6,16,Yau Tsim Mong
Wellcome Supermarket,"Rondall Building, 香港塘尾, 168-178號 Tai Po Rd, Tai Kok Tsui, Hong Kong",ChIJ2184JbUABDQR88rSBoKEp5s,3.9,32,"['supermarket', 'grocery_or_supermarket', 'food', 'point_of_interest', 'store', 'establishment']",22.3312467,114.1653316,145,4,13,Sham Shui Po
Wellcome,"Centenary Mansion Block 2, Victoria Rd, Kennedy Town, Hong Kong",ChIJGxCjVJf_AzQRRYdRhIu_A-M,3.8,146,"['supermarket', 'grocery_or_supermarket', 'food', 'point_of_interest', 'store', 'establishment']",22.2821211,114.1260485,43,0,1,Central and Western District
Wellcome - Superstore,"8 Belcher's St, Kennedy Town, Hong Kong",ChIJtfV0xIT_AzQRKT83L5AOmMU,4.0,547,"['supermarket', 'grocery_or_supermarket', 'food', 'point_of_interest', 'store', 'establishment']",22.2851614,114.1327625,55,0,2,Central and Western District
Wellcome,"G/F, Hau Fook Building, Queen's Rd W, Shek Tong Tsui, Hong Kong",ChIJx3fZmIT_AzQRoo3Q3-zwUEU,3.9,96,"['supermarket', 'grocery_or_supermarket', 'food', 'point_of_interest', 'store', 'establishment']",22.2863072,114.1336907,55,0,4,Central and Western District
Wellcome,"Shop No. 8-13 Centre Shopping Arcade II, Hong Kong",ChIJG5oFc_r4AzQRIlDOXLUJHQM,3.4,42,"['supermarket', 'grocery_or_supermarket', 'food', 'point_of_interest', 'store', 'establishment']",22.3791409,114.1075428,34,0,3,Tsuen Wan District
Wellcome,"503, Portion of G F, 505 Jaffe Rd, Causeway Bay, Hong Kong",ChIJCUBE-lYABDQRLJr6RTUdiSM,3.7,399,"['supermarket', 'grocery_or_supermarket', 'food', 'point_of_interest', 'store', 'establishment']",22.28119,114.1831972,92,2,4,Wan Chai
Wellcome,"United Building Lung To Court, 10C-10G, G/F United Building, Wu Kwong St, Hung Hom, Hong Kong",ChIJM8nFqOAABDQRc0s_s9XgpmA,3.8,493,"['supermarket', 'grocery_or_supermarket', 'food', 'point_of_interest', 'store', 'establishment']",22.3057924,114.1865303,69,1,8,Yau Tsim Mong
惠康Wellcome Fresh,"3/F, The Westwood, 8 Belcher's St, Kennedy Town, Hong Kong",ChIJORXMeA__AzQRSUchvCAW9kM,4.3,7,"['supermarket', 'grocery_or_supermarket', 'food', 'point_of_interest', 'store', 'establishment']",22.284968,114.1332523,57,0,4,Central and Western District
Wellcome,"Office Plus Prince Edward, 794-802 Nathan Rd, Mong Kok, Hong Kong",ChIJgY_0A8oABDQR1pMSiAAkOBQ,3.6,122,"['supermarket', 'grocery_or_supermarket', 'food', 'point_of_interest', 'store', 'establishment']",22.326218,114.1681298,148,7,18,Sham Shui Po
Wellcome - Kwai Shing,"Shop No. 129, 1/F, Kwai Shing East Estate, Kwai Chung, Hong Kong",ChIJb7dbvpb4AzQRAfcBShjx5qs,3.6,25,"['supermarket', 'grocery_or_supermarket', 'food', 'point_of_interest', 'store', 'establishment']",22.364627,114.127339,105,3,6,Tsuen Wan District
Wellcome,"Shik On Building, Shop C-E, G/F, Shek On Building, Cheung Sha Wan Rd, Hong Kong",ChIJVdJkq7UABDQR40nZUHTtwvU,3.5,53,"['supermarket', 'grocery_or_supermarket', 'food', 'point_of_interest', 'store', 'establishment']",22.3289116,114.1648553,146,4,15,Sham Shui Po
Wellcome,"Tai Kok Tsui Rd, Tai Kok Tsui, Hong Kong",ChIJc8eppbAABDQRVsv_lRzCRQI,3.6,85,"['supermarket', 'grocery_or_supermarket', 'store', 'food', 'point_of_interest', 'establishment']",22.3216747,114.1618132,119,6,15,Sham Shui Po
Wellcome Supermarket - Princeton Tower,"80 Des Voeux Rd W, Sheung Wan, Hong Kong",ChIJvQA8CH8ABDQRwY85G-qMfhU,3.6,85,"['supermarket', 'grocery_or_supermarket', 'store', 'food', 'point_of_interest', 'establishment']",22.2876214,114.145976,92,1,7,Central and Western District
Wellcome,"Kwai Hing Estate Market, Kwai Hing Shopping Centre, Kwai Chung, Hong Kong",ChIJAUnqbpr4AzQRe3PzZu1rZoY,3.5,72,"['supermarket', 'grocery_or_supermarket', 'store', 'food', 'point_of_interest', 'establishment']",22.366822,114.133057,92,2,5,Tsuen Wan District
Wellcome,"Yau Yat Lau, 11-11C Fa Po St, Yau Yat Chuen, Hong Kong",ChIJ-21OOTMHBDQRr557eeWzPdc,3.9,195,"['supermarket', 'grocery_or_supermarket', 'store', 'food', 'point_of_interest', 'establishment']",22.3314516,114.1756327,88,3,2,Yau Tsim Mong
Wellcome,"Shop 2F Level 4, 8 Sceneway Rd, Lam Tin, Hong Kong",ChIJt4DobVkBBDQRcBrszSWptJ8,3.3,36,"['supermarket', 'grocery_or_supermarket', 'store', 'food', 'point_of_interest', 'establishment']",22.3066542,114.2340355,68,2,4,Kwon Tong
Wellcome,"Shop 32, Level 2, 1 On Tai Rd, Tai Po, Hong Kong",ChIJE6t3zEcIBDQRROg4XKN_aeg,3.3,61,"['supermarket', 'grocery_or_supermarket', 'store', 'food', 'point_of_interest', 'establishment']",22.4529089,114.170445,69,2,21,Tai Po District
Wellcome,"Ping Wui Centre, Shop 31, G/F, Ping Wui St, Yuen Long, Hong Kong",ChIJ7XrZqp_wAzQRiJ8HEkrNUlo,3.6,181,"['supermarket', 'grocery_or_supermarket', 'store', 'food', 'point_of_interest', 'establishment']",22.4464198,114.0222579,61,1,12,Yuen Long District
Wellcome,"Shop A2, G/F., Arion Comm. Centre 2, 12 Queen's Rd W, Sheung Wan, Hong Kong",ChIJda8u7X4ABDQRxQQkikMp7Es,3.4,86,"['supermarket', 'grocery_or_supermarket', 'store', 'food', 'point_of_interest', 'establishment']",22.286365,114.148369,109,1,7,Central and Western District
Wellcome,"Standard Chartered Bank Building - San Po Kong, Shop A-D, G/F, The Chartered Bank Building, No, Ning Yuen St, Hong Kong",ChIJr9bsktYGBDQRVPAqyuN0QqI,3.7,47,"['supermarket', 'grocery_or_supermarket', 'store', 'food', 'point_of_interest', 'establishment']",22.3341059,114.195305,90,3,3,Kowloon City District
Wellcome,"Shop A, Seaview Court, Shanghai St, Yau Ma Tei, Hong Kong",ChIJC6C3Q-sABDQRIkEtpk0W-Go,3.6,15,"['supermarket', 'grocery_or_supermarket', 'store', 'food', 'point_of_interest', 'establishment']",22.3044509,114.1690014,86,6,13,Yau Tsim Mong
Wellcome,"1 Kwong Wa St, Yau Ma Tei, Hong Kong",ChIJPQdqk8YABDQRchWnJql5Go8,3.7,87,"['supermarket', 'grocery_or_supermarket', 'store', 'food', 'point_of_interest', 'establishment']",22.3160147,114.1726625,119,5,15,Yau Tsim Mong
Wellcome,"Hong Kong, Lei Cheng Uk, Castle Peak Rd, 170號, Apollo Building, B/F",ChIJ6-H6UEwHBDQRPnuX6AfQBTw,3.6,97,"['supermarket', 'grocery_or_supermarket', 'store', 'food', 'point_of_interest', 'establishment']",22.336193,114.1593909,132,2,12,Sham Shui Po
Wellcome,"Shop C7, 2/F Commercial Centre, Estate, Tai Wo Hau Rd, Tsuen Wan New Town, Hong Kong",ChIJ6yg6pZP4AzQR_rNokpOnYHY,3.6,114,"['supermarket', 'grocery_or_supermarket', 'store', 'food', 'point_of_interest', 'establishment']",22.368415,114.123814,111,3,6,Tsuen Wan District
惠康 Wellcome,"Portion of Flats A-D, G/F, Yuen Shing Bldg, 9, 11, 13, 15, 19 &, 21 Gillies Ave S, Hung Hom, Hong Kong",ChIJbSauYecABDQR7BkK69nBuDg,3.7,94,"['supermarket', 'grocery_or_supermarket', 'store', 'food', 'point_of_interest', 'establishment']",22.306573,114.1839118,81,1,8,Yau Tsim Mong
Wellcome,"G/F, Hung Shuk Chun Building, Fuk Wing St, Sham Shui Po, Hong Kong",ChIJbUFrKFIHBDQRU1pMUXGNEyw,3.5,138,"['supermarket', 'grocery_or_supermarket', 'store', 'food', 'point_of_interest', 'establishment']",22.3392347,114.1535275,86,2,6,Sham Shui Po
Wellcome Supermarket,"Government Offices, Mui Wo, 2 Ngan Kwong Wan Rd, Lantau Island, Hong Kong",ChIJeQk2SitWATQRkLuiM6FNDSM,3.9,140,"['supermarket', 'grocery_or_supermarket', 'store', 'food', 'point_of_interest', 'establishment']",22.2640112,114.0015092,10,0,1,Islands District
Wellcome,"Shop 14-22, G/F., Cheong Yat Hse. Nam Cheong Est., Sham Shui Po, Kln, Hong Kong",ChIJmcAAxLEABDQR8cFuwLMIdGw,3.8,17,"['supermarket', 'grocery_or_supermarket', 'store', 'food', 'point_of_interest', 'establishment']",22.3259711,114.1572588,100,4,9,Sham Shui Po
Wellcome - Hunghom Centre,"Hunghom Commercial Centre Block A, Ma Tau Wai Rd, Hok Yuen, Hong Kong",ChIJY19J3d4ABDQRFZ5R7SPqZdY,3.7,143,"['supermarket', 'grocery_or_supermarket', 'store', 'food', 'point_of_interest', 'establishment']",22.3105353,114.1878974,79,0,10,Yau Tsim Mong
Wellcome - Metropole Superstore,"Portion of Basement, Metropole Building, No. 426 King's, 416 King's Rd, North Point, Hong Kong",ChIJTev_8AQBBDQRMH9aByOEEOg,3.7,248,"['supermarket', 'grocery_or_supermarket', 'store', 'food', 'point_of_interest', 'establishment']",22.2907583,114.1994541,68,3,4,Eastern
Wellcome,"Shop 213, Kwai Chung Shopping Centre, Kwai Chung Estate, Kwai Chung, Hong Kong",ChIJVZdqF5H4AzQRnSTgOM8xYfM,3.8,72,"['supermarket', 'grocery_or_supermarket', 'store', 'food', 'point_of_interest', 'establishment']",22.3675591,114.1281914,90,2,4,Tsuen Wan District
Wellcome,"G/F, 39 Chung Hom Kok Rd, Chung Hom Kok, Hong Kong",ChIJc0UXq2iqBjQRddeQfPk0b8g,4.1,63,"['supermarket', 'grocery_or_supermarket', 'store', 'food', 'point_of_interest', 'establishment']",22.2198074,114.2036158,33,0,0,Southern
Wellcome - Happy Valley,"13-19號 Sing Woo Rd, Happy Valley, Hong Kong",ChIJKzlxg04ABDQRQVbZP8r14Cc,3.8,131,"['supermarket', 'grocery_or_supermarket', 'store', 'food', 'point_of_interest', 'establishment']",22.2694819,114.1857327,79,0,0,Wan Chai
Wellcome,"Red Hill Plaza, Shop G25, G/F Hong Kong, Tai Tam, Hong Kong",ChIJOR5VsOMBBDQR-cZKOddrqm4,4.1,57,"['supermarket', 'grocery_or_supermarket', 'store', 'food', 'point_of_interest', 'establishment']",22.2364773,114.2232519,5,0,0,Eastern
Wellcome,"G/F, Yue Tin Court, Yue Tin Court Market, 11-23 Ngan Shing St, Sha Tin, Hong Kong",ChIJE4tGhE8GBDQR-jiJfeavgEk,3.8,60,"['supermarket', 'grocery_or_supermarket', 'food', 'point_of_interest', 'store', 'establishment']",22.3830986,114.2025315,54,2,6,Sha Tin
Wellcome,"Shop No. 30, G/F, Wan Tau Tong Shopping Ctr, Tai Po, Hong Kong",ChIJo1bHRxUIBDQRD_PzkOjaVTw,3.7,152,"['supermarket', 'grocery_or_supermarket', 'store', 'food', 'point_of_interest', 'establishment']",22.4420238,114.1667061,28,1,11,Tai Po District
Wellcome,"1/F, Un Chau Shopping Centre, Un Chau Estate, 303 Un Chau St, Cheung Sha Wan, Hong Kong",ChIJRah99U0HBDQR-inJQPrQyYg,3.3,111,"['supermarket', 'grocery_or_supermarket', 'store', 'food', 'point_of_interest', 'establishment']",22.3375563,114.1562322,107,2,9,Sham Shui Po
Wellcome,"Lung Poon Court, Diamond Hill, Hong Kong",ChIJOxsioNsGBDQRhNV56tGMJks,3.5,77,"['supermarket', 'grocery_or_supermarket', 'store', 'food', 'point_of_interest', 'establishment']",22.341779,114.200316,93,2,3,Wong Tai Sin
Wellcome,"LG/F, Smithfield Terrace Block D, Smithfield, Kennedy Town, Hong Kong",ChIJ9VQ6jJD_AzQRpB1MDh6Qog4,3.4,21,"['supermarket', 'grocery_or_supermarket', 'store', 'food', 'point_of_interest', 'establishment']",22.2807786,114.1286676,48,0,1,Central and Western District
Wellcome - Yat Tung Superstore,"Shop No 110, 1/F Eaton Shopping Centre, Yat Tung Estate, Tung Chung, Hong Kong",ChIJibJ9J6HiAzQR6f60A8w4neE,3.6,214,"['supermarket', 'grocery_or_supermarket', 'store', 'food', 'point_of_interest', 'establishment']",22.2813936,113.9347961,28,0,3,Islands District
Wellcome,"Cheung Hang Estate Block 4 Hang Chi House, LG 202 Cheung Hang Shopping Centre, Tsing Yi, Hong Kong",ChIJKRgpH9j4AzQRyvhUFD9UmBc,3.4,52,"['supermarket', 'grocery_or_supermarket', 'store', 'food', 'point_of_interest', 'establishment']",22.3541857,114.097752,38,0,3,Kwai Tsing
Wellcome,"Wearbest Building, 66 To Kwa Wan Rd, To Kwa Wan, Hong Kong",ChIJcbEJNtgABDQRoRteMKfSZTI,3.7,318,"['supermarket', 'grocery_or_supermarket', 'store', 'food', 'point_of_interest', 'establishment']",22.3157615,114.1889025,90,0,8,Kowloon City District
Wellcome,"Shop No. LMC 132, Departure Concourse Paid Area, Lok MA Chau Station, Hong Kong",ChIJ1W3zTLv2AzQR3Hl0KEV4SSc,3.5,4,"['supermarket', 'grocery_or_supermarket', 'store', 'food', 'point_of_interest', 'establishment']",22.5150359,114.065626,4,0,0,North
Wellcome Supermarket,"11 On Chun St, Ma On Shan, Hong Kong",ChIJtcNtYbAIBDQRWVrDl6cZqxs,3.3,72,"['supermarket', 'grocery_or_supermarket', 'store', 'food', 'point_of_interest', 'establishment']",22.4250117,114.2283498,28,2,10,Sha Tin
Wellcome,"G/F, 52 Tong Mi Rd, Mong Kok, Hong Kong",ChIJm1IJircABDQR4XzWH6UQy_I,3.7,156,"['supermarket', 'grocery_or_supermarket', 'store', 'food', 'point_of_interest', 'establishment']",22.3207372,114.1658737,127,6,16,Yau Tsim Mong
WellcomeTsui Ping,"1F Tsui Ping Shopping Circuit, 19 Tsui Ping Rd, North) Estate, Hong Kong",ChIJzU7mlVEBBDQR1Qwa2KYD4fs,3.7,334,"['supermarket', 'grocery_or_supermarket', 'store', 'food', 'point_of_interest', 'establishment']",22.3149628,114.2299973,110,2,5,Kwon Tong
Wellcome,"Sim City Of Chung Kiu Comm, 47, 51 Shantung St, Mong Kok, Hong Kong",ChIJ2ZOxr8cABDQRp8QKPfEuEBg,3.7,97,"['supermarket', 'grocery_or_supermarket', 'store', 'food', 'point_of_interest', 'establishment']",22.3176834,114.1701697,118,7,14,Yau Tsim Mong
Wellcome,"Shop 1-11, Block 5, G/F Prosperous Garden, 3 Public Square St, Hong Kong",ChIJOUA6EcAABDQREAlUjAgIfDk,3.9,100,"['supermarket', 'grocery_or_supermarket', 'store', 'food', 'point_of_interest', 'establishment']",22.3100436,114.1687768,89,5,14,Yau Tsim Mong
wellcome,"Kai Tin Shopping Centre, 50 Kai Tin Rd, Lam Tin, Hong Kong",ChIJ-cDx6FkBBDQR70DRIpaFoyA,3.7,271,"['supermarket', 'grocery_or_supermarket', 'store', 'food', 'point_of_interest', 'establishment']",22.3086491,114.2346306,75,2,4,Kwon Tong
Wellcome,"Shop 5-9, Kam Pik Hse, Choi Hung Rd, Ngau Chi Wan, Hong Kong",ChIJGVJyvM8GBDQRjx8raHYSAOw,3.4,151,"['supermarket', 'grocery_or_supermarket', 'store', 'food', 'point_of_interest', 'establishment']",22.3349522,114.2055181,78,2,2,Wong Tai Sin
Wellcome,"G/F, No. 233 Electrial Road, City Garden Rd, North Point, Hong Kong",ChIJ66seBwMBBDQRWYJGDI9RMg4,3.6,44,"['supermarket', 'grocery_or_supermarket', 'store', 'food', 'point_of_interest', 'establishment']",22.2910665,114.1933155,63,4,6,Wan Chai
Wellcome（Sau Mau Ping Shopping Centre）,"Shop 102, 1/F Sau Mau Ping Shopping Centre, Sau Mau Ping Estate, Hong Kong",ChIJZTdCaFMBBDQR-CiXyZNZ-UM,3.6,144,"['supermarket', 'grocery_or_supermarket', 'store', 'food', 'point_of_interest', 'establishment']",22.3191239,114.2321783,79,1,2,Kwon Tong
惠康,"99 Mong Kok Rd, Mong Kok, Hong Kong",ChIJ-WMijMgABDQR9YpjcuLb6aI,3.7,125,"['supermarket', 'grocery_or_supermarket', 'store', 'food', 'point_of_interest', 'establishment']",22.3209789,114.1711607,124,7,14,Yau Tsim Mong
Wellcome Supermarket,"324號 Lai Chi Kok Rd, Sham Shui Po, Hong Kong",ChIJnd4Ok7MABDQRhroG_FUlMVQ,3.4,43,"['supermarket', 'grocery_or_supermarket', 'store', 'food', 'point_of_interest', 'establishment']",22.3286594,114.1607825,132,7,14,Sham Shui Po
Wellcome,"shop N 1/F, Ping Tin Shopping Centre, Ping Tin Commercial Complex, 23 On Tin St, Lam Tin, Hong Kong",ChIJL4wB8lgBBDQR7ccsNd4Tzpg,3.5,68,"['supermarket', 'grocery_or_supermarket', 'store', 'food', 'point_of_interest', 'establishment']",22.3060054,114.2371994,56,3,4,Kwon Tong
Wellcome,"Shop F9, 1/F, 55 Chuk Yuen Rd, Ma Chai Hang, Hong Kong",ChIJLVIdKH0HBDQRICDIamwrU_Q,3.7,62,"['supermarket', 'grocery_or_supermarket', 'store', 'food', 'point_of_interest', 'establishment']",22.342973,114.1871792,68,2,1,Wong Tai Sin
Wellcome,"Shop F, 1/F, 1-15 Tak Man St, Hung Hom, Hong Kong",ChIJ84dFOt4ABDQRwO6MqaWPaeQ,3.8,21,"['supermarket', 'grocery_or_supermarket', 'store', 'food', 'point_of_interest', 'establishment']",22.3067284,114.1874627,67,1,8,Yau Tsim Mong
惠康,"33 Lai Chi Kok Rd, Mong Kok, Hong Kong",ChIJw-HoKMgABDQRQDfVFiu-6Jg,2.8,4,"['supermarket', 'grocery_or_supermarket', 'store', 'food', 'point_of_interest', 'establishment']",22.3226025,114.1679683,134,6,17,Yau Tsim Mong
Wellcome,"G/F, Winfair Building, Nkil 5762, Tsz Wan Shan, Hong Kong",ChIJWZMbBd0GBDQRQiSCde_V0Iw,3.5,83,"['supermarket', 'grocery_or_supermarket', 'store', 'food', 'point_of_interest', 'establishment']",22.346407,114.2010288,68,2,1,Wong Tai Sin
Wellcome,"9-13 Lung Ping Rd, Hong Kong",ChIJs190EkgHBDQRCHXhabYIbio,3.6,32,"['supermarket', 'grocery_or_supermarket', 'store', 'food', 'point_of_interest', 'establishment']",22.3424408,114.1664175,39,0,2,Sham Shui Po
Wellcome,"On Kay Court Kay Yue House, G/F, On Kay Court Comm. Ctr, 20 Chun Wah Rd, Ngau Tau Kok, Hong Kong",ChIJbxC4w0oBBDQR-UgZ-BGupkg,3.2,170,"['supermarket', 'grocery_or_supermarket', 'store', 'food', 'point_of_interest', 'establishment']",22.3226295,114.2172223,75,2,2,Kwon Tong
Wellcome,"G/F On Yam Shopping Centre On Yam Estate, Kwai Chung, Hong Kong",ChIJcVLL5YL4AzQR9enxd277nKc,3.2,19,"['supermarket', 'grocery_or_supermarket', 'store', 'food', 'point_of_interest', 'establishment']",22.371034,114.141521,43,0,3,Tsuen Wan District
Wellcome,"G/F, No. 2 Shek Sau House, Shek Lei Estate, Kwai Chung, NT, Hong Kong",ChIJ8atvJZn4AzQR6YC4ccnkZos,3.8,19,"['supermarket', 'grocery_or_supermarket', 'store', 'food', 'point_of_interest', 'establishment']",22.3619308,114.1373174,53,1,6,Tsuen Wan District
Wellcome,"Shun Ning Rd, So Uk, Hong Kong",ChIJd7EX5lEHBDQRIGyV0j1jXBw,3.4,133,"['supermarket', 'grocery_or_supermarket', 'store', 'food', 'point_of_interest', 'establishment']",22.3403459,114.1551584,81,2,7,Sham Shui Po
Wellcome,"57-61, & Lo Tak Ct, Tsuen Wan, Hong Kong",ChIJ0c5i9e34AzQRdleFiqaR2Rg,3.6,678,"['supermarket', 'grocery_or_supermarket', 'store', 'food', 'point_of_interest', 'establishment']",22.373283,114.1155821,76,2,8,Tsuen Wan District
Wellcome,"Portion of Shop Nos. 19 & 20A, 1/F, Indihome, 138 Yeung UK Rd, Tsuen Wan, NT, Hong Kong",ChIJIT0bbOv4AzQRzntqvS135D4,3.3,23,"['supermarket', 'grocery_or_supermarket', 'store', 'food', 'point_of_interest', 'establishment']",22.366233,114.118244,87,3,7,Tsuen Wan District
Wellcome,"180號 Lai King Hill Rd, Kwai Chung, Hong Kong",ChIJ31vurbD4AzQRNxir2Gr9XUs,3.4,168,"['supermarket', 'grocery_or_supermarket', 'store', 'food', 'point_of_interest', 'establishment']",22.3485975,114.1266566,37,3,3,Kwai Tsing
Wellcome,"Carpark, Shek Wai Kok Estate Shek To House, Part of G/F, Hong Kong",ChIJvQYOToz4AzQRnDsvC5s3MKA,3.7,40,"['supermarket', 'grocery_or_supermarket', 'store', 'food', 'point_of_interest', 'establishment']",22.3745018,114.1233417,70,2,5,Tsuen Wan District
Wellcome,"Kwai Fong, Hong Kong",ChIJ_45mDr34AzQRk9f_hNTPCCU,3.5,186,"['supermarket', 'grocery_or_supermarket', 'store', 'food', 'point_of_interest', 'establishment']",22.3581237,114.1298162,74,2,4,Kwai Tsing
Wellcome,"G/F, Cheung Ching Commercial Centre, Cheung Ching Estate, Tsing Yi, Hong Kong",ChIJlRFzyNH4AzQR7dSlYP9fod0,3.4,45,"['supermarket', 'grocery_or_supermarket', 'store', 'food', 'point_of_interest', 'establishment']",22.3488931,114.1059428,46,0,4,Kwai Tsing
Wellcome,"Shop No.8, Car Park Level, Garden, 123 Yi Hong St, Riviera Gardens, Hong Kong",ChIJt9ndAer4AzQRB_CXCMtHBwk,3.5,75,"['supermarket', 'grocery_or_supermarket', 'store', 'food', 'point_of_interest', 'establishment']",22.3615359,114.1123747,34,3,4,Kwai Tsing
Wellcome Superstore,"Liberte Block 8, Lai Chi Kok Rd, Cheung Sha Wan, Hong Kong",ChIJB5YJu1QHBDQR6-SMc1zlKwg,3.6,266,"['supermarket', 'grocery_or_supermarket', 'store', 'food', 'point_of_interest', 'establishment']",22.3349342,114.1484909,80,2,4,Sham Shui Po
Wellcome,"33號 Lai Chi Kok Rd, Mong Kok, Hong Kong",ChIJgzTwKMgABDQRZr74AMl5npI,3.6,41,"['supermarket', 'grocery_or_supermarket', 'store', 'food', 'point_of_interest', 'establishment']",22.3226191,114.1679433,134,6,18,Yau Tsim Mong
Wellcome,"Broadview Garden Block 1, Shop 1-7, G/F, Comm. Ctr, 1 Tsing Luk St, Tsing Yi, Hong Kong",ChIJHzgysNv4AzQR9kaCDZZBr-c,3.6,34,"['supermarket', 'grocery_or_supermarket', 'store', 'food', 'point_of_interest', 'establishment']",22.3559526,114.1037823,50,2,5,Kwai Tsing
Welcome Supermarket,"Golden Centre, 94 Yen Chow St, Un Chau, Hong Kong",ChIJjc10VbMABDQRG3wFxeHFhCw,3.8,89,"['supermarket', 'grocery_or_supermarket', 'store', 'food', 'point_of_interest', 'establishment']",22.332432,114.161867,153,3,14,Sham Shui Po
Wellcome,"Tai Hung Fai ( Tsuen Wan ) Center, Basement 1, Chung On St, Tsuen Wan, Hong Kong",ChIJK5aVU-z4AzQRX0z0qLrLhyM,3.7,219,"['supermarket', 'grocery_or_supermarket', 'store', 'food', 'point_of_interest', 'establishment']",22.370093,114.116722,76,3,10,Tsuen Wan District
Wellcome - Waldorf Centre,"G/F, Waldorf Centre, Sai Lau Kok Rd, Tsuen Wan, Hong Kong",ChIJMSXXTu34AzQRxvyAHWzQsRA,3.4,77,"['supermarket', 'grocery_or_supermarket', 'store', 'food', 'point_of_interest', 'establishment']",22.3714323,114.1196642,81,2,10,Tsuen Wan District
Wellcome,"Shop 29 - 31, 2/F Shopping Complex, Kwai Shing Estate (West, Kwai Chung, Hong Kong",ChIJdaBQ2L_4AzQRPROiQfQWowM,3.7,56,"['supermarket', 'grocery_or_supermarket', 'store', 'food', 'point_of_interest', 'establishment']",22.3610154,114.1226038,88,2,6,Kwai Tsing
Wellcome,"166-174 Hing Fong Rd, Kwai Chung, Hong Kong",ChIJZ4reepf4AzQREE8-QS5mrT0,3.6,75,"['supermarket', 'grocery_or_supermarket', 'store', 'food', 'point_of_interest', 'establishment']",22.3628959,114.1315921,99,2,5,Tsuen Wan District
Wellcome,"Shop 26 & 27, 3/F, Commercial Center, Mayfair Gardens, Tsing Yi, Hong Kong",ChIJH8UZ99b4AzQRaYUWgWyN95g,4.1,20,"['supermarket', 'grocery_or_supermarket', 'store', 'food', 'point_of_interest', 'establishment']",22.3443978,114.1067331,27,0,2,Kwai Tsing
Wellcome,"The Panorama, Shops 1 & 2, G/F, 520 Castle Peak Rd - Tsuen Wan, Tsuen Wan, Hong Kong",ChIJg7hxmuT4AzQRLxkc8ZpK9P8,3.7,43,"['supermarket', 'grocery_or_supermarket', 'store', 'food', 'point_of_interest', 'establishment']",22.373301,114.103011,32,1,5,Tsuen Wan District
Wellcome,"No 4 Tsing Yi Commercial Complex, Tsing Yip St, Tsing Yi, Hong Kong",ChIJz3d_Pdr4AzQRBXX6b-JL-gk,3.6,95,"['supermarket', 'grocery_or_supermarket', 'store', 'food', 'point_of_interest', 'establishment']",22.3543309,114.103242,53,2,5,Kwai Tsing
Wellcome,"Shop 9A, Allway Gardens Shopping Ctr, Ph1, 195, 187 Tsuen King Circuit, Hong Kong",ChIJ-_6BsPv4AzQRmXvwU8h0bTI,3.5,43,"['supermarket', 'grocery_or_supermarket', 'store', 'food', 'point_of_interest', 'establishment']",22.3772147,114.1044386,37,0,5,Tsuen Wan District
Wellcome Superstore - 惠康超級市場,"Hong Kong, Mong Kok, Sai Yee St, 135A-135B號135A- 號 Mong Kok Building",ChIJ-WMijMgABDQR0eW42qT72Hw,4.1,9,"['store', 'point_of_interest', 'establishment']",22.3209789,114.1711607,124,7,15,Yau Tsim Mong
Wellcome,"G/F Fortuna House 118 Lei Muk Road, Shek Yam, Kwai Chung, Hong Kong",ChIJo1jFZYP4AzQR_QylZdZ90xs,4.8,4,"['supermarket', 'grocery_or_supermarket', 'store', 'food', 'point_of_interest', 'establishment']",22.3711355,114.1382571,56,0,3,Tsuen Wan District
Wellcome,"110 Tai Loong St, Kwai Chung, Hong Kong",ChIJewnfaZz4AzQRDVEH4d-tPi8,3.6,112,"['supermarket', 'grocery_or_supermarket', 'store', 'food', 'point_of_interest', 'establishment']",22.3654619,114.1389813,59,1,4,Tsuen Wan District
Wellcome,"Tai Hang Tung Estate Tung Lung House, Shop 4-10, G/F, Hong Kong",ChIJwfkC2jQHBDQRuGoPng9c9q0,3.4,92,"['supermarket', 'grocery_or_supermarket', 'store', 'food', 'point_of_interest', 'establishment']",22.331574,114.1711688,120,6,5,Sham Shui Po
Wellcome,"Shop 2, 1/F, Wonderlan Villas Commercial Compiex, Wah King Hill Rd, Kwai Chung, Hong Kong",ChIJSzj7PaT4AzQRwOrygzbMzw8,4.0,40,"['supermarket', 'grocery_or_supermarket', 'store', 'food', 'point_of_interest', 'establishment']",22.351769,114.136905,17,0,1,Sham Shui Po
Wellcome,"7A Glee Path, Mei Foo Sun Chuen, Hong Kong",ChIJ9b9ySKv4AzQRGqh2xUXfv0U,3.6,177,"['supermarket', 'grocery_or_supermarket', 'store', 'food', 'point_of_interest', 'establishment']",22.336713,114.139284,45,3,5,Sham Shui Po
Wellcome Superstore,"69 Broadway, Mei Foo Sun Chuen, Hong Kong",ChIJT_ciK6v4AzQRs67ZP901Mik,3.8,147,"['supermarket', 'grocery_or_supermarket', 'store', 'food', 'point_of_interest', 'establishment']",22.335935,114.1407408,49,3,5,Sham Shui Po
Wellcome,"Hong Kong, Tsing Yi, 長 青 村長 青 商業 中心 地下 T1-T5 號",ChIJl-Hd7M34AzQRxa6yYEDFlaY,3.1,24,"['supermarket', 'grocery_or_supermarket', 'store', 'food', 'point_of_interest', 'establishment']",22.3450113,114.1092148,25,0,2,Kwai Tsing
Wellcome,"G/F, No, 26-30 Wo Yi Hop Rd, Kwai Chung, Hong Kong",ChIJ-5B442j5AzQR1WY8EluYXEI,3.5,24,"['supermarket', 'grocery_or_supermarket', 'store', 'food', 'point_of_interest', 'establishment']",22.3658877,114.1369642,73,1,3,Tsuen Wan District
Wellcome Supermarket,"608號 Lai Chi Kok Rd, Cheung Sha Wan, Hong Kong",ChIJ11HrihcBBDQRdA9WzXizBeY,0.0,0,"['supermarket', 'grocery_or_supermarket', 'store', 'food', 'point_of_interest', 'establishment']",22.333536,114.1547782,122,5,14,Sham Shui Po
Wellcome,"Shop 101, 1/F, Mei Tin Shopping Centre, Mei Tin Estate, Tai Wai, Shatin, Hong Kong",ChIJt0OlfaAHBDQRR6ht5-ErOi4,3.2,52,"['supermarket', 'grocery_or_supermarket', 'store', 'food', 'point_of_interest', 'establishment']",22.376285,114.170553,24,1,0,Sha Tin
